{
  "google_sheets": {
    "credentials_file": "credentials.json",
    "spreadsheet_id": "1Ykv1whSLXsvuxrVfNrtAnEXpF_X7gc_s2gCDzirGoXY",
    "hojas": {
      "rutas": "RUTAS",
      "paradas": "PARADAS",
      "unidades": "UNIDADES",
      "puntos_interes": "PUNTOS_DE_INTERES",
      "incidencias": "INCIDENCIAS_HISTORICAS"
    }
  },
  "scraping": {
    "delay_min": 2,
    "delay_max": 5,
    "max_reintentos": 3,
    "timeout": 30,
    "user_agents": [
      "Mozilla/5.0 (Windows NT 10.0; Win64; x64) AppleWebKit/537.36 (KHTML, like Gecko) Chrome/131.0.0.0 Safari/537.36",
      "Mozilla/5.0 (Macintosh; Intel Mac OS X 10_15_7) AppleWebKit/537.36 (KHTML, like Gecko) Chrome/131.0.0.0 Safari/537.36",
      "Mozilla/5.0 (Windows NT 10.0; Win64; x64; rv:133.0) Gecko/20100101 Firefox/133.0",
      "Mozilla/5.0 (Macintosh; Intel Mac OS X 10_15_7) AppleWebKit/605.1.15 (KHTML, like Gecko) Version/18.2 Safari/605.1.15",
      "Mozilla/5.0 (X11; Linux x86_64) AppleWebKit/537.36 (KHTML, like Gecko) Chrome/131.0.0.0 Safari/537.36"
    ]
  },
  "fuentes_noticias": [
    "https://www.elimparcial.com/tijuana/",
    "https://www.sandiegouniontribune.com/en-espanol/",
    "https://www.frontera.info/",
    "https://www.elsoldetijuana.com.mx/"
  ],
  "rutas_tijuana": [
    {
      "nombre": "Ruta 1 Centro - La Mesa",
      "concesionario": "ATT",
      "tipo_servicio": "Normal",
      "zonas_conecta": "Centro, Zona Río, La Mesa",
      "calles_principales": "Av. Revolución, Blvd. Díaz Ordaz, Blvd. La Mesa",
      "lat_inicio": 32.5300,
      "lon_inicio": -117.0250,
      "lat_fin": 32.5100,
      "lon_fin": -116.9600
    },
    {
      "nombre": "Ruta 2 Centro - Otay",
      "concesionario": "ATT",
      "tipo_servicio": "Normal",
      "zonas_conecta": "Centro, Zona Este, Otay",
      "calles_principales": "Calle 2da, Blvd. Industrial, Blvd. Otay",
      "lat_inicio": 32.5290,
      "lon_inicio": -117.0230,
      "lat_fin": 32.5350,
      "lon_fin": -116.9520
    },
    {
      "nombre": "Ruta 3 Playas - Centro",
      "concesionario": "ATT",
      "tipo_servicio": "Normal",
      "zonas_conecta": "Playas de Tijuana, Centro, Zona Norte",
      "calles_principales": "Paseo Playas, Av. del Pacífico, Calle Internacional",
      "lat_inicio": 32.5310,
      "lon_inicio": -117.1230,
      "lat_fin": 32.5280,
      "lon_fin": -117.0240
    },
    {
      "nombre": "Ruta 4 Soler - Centro",
      "concesionario": "ATT",
      "tipo_servicio": "Normal",
      "zonas_conecta": "Col. Soler, Centro, Zona Norte",
      "calles_principales": "Blvd. Insurgentes, Av. Revolución, Calle 1ra",
      "lat_inicio": 32.4990,
      "lon_inicio": -117.0350,
      "lat_fin": 32.5300,
      "lon_fin": -117.0250
    },
    {
      "nombre": "Ruta 5 y 10 Centro - La Presa",
      "concesionario": "ATT",
      "tipo_servicio": "Normal",
      "zonas_conecta": "Centro, La Presa Este, La Presa Oeste",
      "calles_principales": "Calle 3ra, Blvd. Cuauhtémoc, Av. De la Presa",
      "lat_inicio": 32.5295,
      "lon_inicio": -117.0240,
      "lat_fin": 32.5050,
      "lon_fin": -116.9900
    },
    {
      "nombre": "Ruta 6 Centro - Camino Verde",
      "concesionario": "ATT",
      "tipo_servicio": "Normal",
      "zonas_conecta": "Centro, Col. Cacho, Camino Verde",
      "calles_principales": "Calle 2da, Blvd. Salinas, Av. Camino Verde",
      "lat_inicio": 32.5285,
      "lon_inicio": -117.0235,
      "lat_fin": 32.4960,
      "lon_fin": -117.0050
    },
    {
      "nombre": "Ruta 7 Centro - Florido",
      "concesionario": "ATT",
      "tipo_servicio": "Normal",
      "zonas_conecta": "Centro, Zona Río, El Florido",
      "calles_principales": "Blvd. Sánchez Taboada, Blvd. 2000, Blvd. El Florido",
      "lat_inicio": 32.5280,
      "lon_inicio": -117.0230,
      "lat_fin": 32.4650,
      "lon_fin": -116.8800
    },
    {
      "nombre": "Ruta 8 Libertad - Insurgentes",
      "concesionario": "ATT",
      "tipo_servicio": "Normal",
      "zonas_conecta": "Col. Libertad, Centro, Blvd. Insurgentes",
      "calles_principales": "Av. Libertad, Calle 5ta, Blvd. Insurgentes",
      "lat_inicio": 32.5350,
      "lon_inicio": -117.0300,
      "lat_fin": 32.4980,
      "lon_fin": -117.0370
    },
    {
      "nombre": "Ruta 9 Centro - Mariano Matamoros",
      "concesionario": "ALTISA",
      "tipo_servicio": "Normal",
      "zonas_conecta": "Centro, Col. Cacho, Mariano Matamoros",
      "calles_principales": "Calle 2da, Blvd. Díaz Ordaz, Av. Lázaro Cárdenas",
      "lat_inicio": 32.5290,
      "lon_inicio": -117.0240,
      "lat_fin": 32.4700,
      "lon_fin": -116.9200
    },
    {
      "nombre": "Ruta 11 Centro - San Antonio de los Buenos",
      "concesionario": "ATT",
      "tipo_servicio": "Normal",
      "zonas_conecta": "Centro, Zona Norte, San Antonio de los Buenos",
      "calles_principales": "Calle Internacional, Blvd. Cuauhtémoc Sur, Av. San Antonio",
      "lat_inicio": 32.5300,
      "lon_inicio": -117.0250,
      "lat_fin": 32.4900,
      "lon_fin": -117.0800
    },
    {
      "nombre": "Ruta 12 Centro - Villas del Campo",
      "concesionario": "ATT",
      "tipo_servicio": "Normal",
      "zonas_conecta": "Centro, La Mesa, Villas del Campo",
      "calles_principales": "Blvd. Díaz Ordaz, Blvd. La Mesa, Carretera Libre Tijuana-Tecate",
      "lat_inicio": 32.5290,
      "lon_inicio": -117.0240,
      "lat_fin": 32.4900,
      "lon_fin": -116.9100
    },
    {
      "nombre": "Ruta 13 Centro - Las Palmas",
      "concesionario": "ATT",
      "tipo_servicio": "Normal",
      "zonas_conecta": "Centro, Col. Cacho, Las Palmas",
      "calles_principales": "Blvd. Sánchez Taboada, Blvd. Las Palmas, Av. Tecnológico",
      "lat_inicio": 32.5290,
      "lon_inicio": -117.0240,
      "lat_fin": 32.4800,
      "lon_fin": -116.9500
    },
    {
      "nombre": "Ruta 14 Centro - El Refugio",
      "concesionario": "ATT",
      "tipo_servicio": "Normal",
      "zonas_conecta": "Centro, Zona Este, El Refugio",
      "calles_principales": "Calle 3ra, Blvd. Industrial Mesa de Otay, Av. El Refugio",
      "lat_inicio": 32.5290,
      "lon_inicio": -117.0240,
      "lat_fin": 32.5200,
      "lon_fin": -116.9300
    },
    {
      "nombre": "Ruta 15 Centro - Villa Fontana",
      "concesionario": "ALTISA",
      "tipo_servicio": "Normal",
      "zonas_conecta": "Centro, Zona Río, Villa Fontana",
      "calles_principales": "Blvd. Agua Caliente, Blvd. Manuel J. Clouthier, Villa Fontana",
      "lat_inicio": 32.5290,
      "lon_inicio": -117.0240,
      "lat_fin": 32.4650,
      "lon_fin": -116.8900
    },
    {
      "nombre": "Ruta 16 Centro - Cerro Colorado",
      "concesionario": "ATT",
      "tipo_servicio": "Normal",
      "zonas_conecta": "Centro, Col. Cacho, Cerro Colorado",
      "calles_principales": "Blvd. Díaz Ordaz, Blvd. Insurgentes, Av. Cerro Colorado",
      "lat_inicio": 32.5290,
      "lon_inicio": -117.0240,
      "lat_fin": 32.4820,
      "lon_fin": -117.0100
    },
    {
      "nombre": "Ruta 17 Playas - La Mesa",
      "concesionario": "ATT",
      "tipo_servicio": "Normal",
      "zonas_conecta": "Playas de Tijuana, Zona Río, La Mesa",
      "calles_principales": "Av. del Pacífico, Paseo de los Héroes, Blvd. La Mesa",
      "lat_inicio": 32.5310,
      "lon_inicio": -117.1230,
      "lat_fin": 32.5100,
      "lon_fin": -116.9600
    },
    {
      "nombre": "Ruta 18 Centro - Los Álamos",
      "concesionario": "ATT",
      "tipo_servicio": "Normal",
      "zonas_conecta": "Centro, Col. Libertad, Los Álamos",
      "calles_principales": "Av. Revolución, Blvd. Los Álamos, Av. Universidad",
      "lat_inicio": 32.5300,
      "lon_inicio": -117.0250,
      "lat_fin": 32.4980,
      "lon_fin": -117.0500
    },
    {
      "nombre": "Ruta 19 Centro - Santa Fe",
      "concesionario": "ALTISA",
      "tipo_servicio": "Normal",
      "zonas_conecta": "Centro, La Mesa, Santa Fe",
      "calles_principales": "Blvd. Díaz Ordaz, Blvd. Santa Fe, Av. Las Torres",
      "lat_inicio": 32.5290,
      "lon_inicio": -117.0240,
      "lat_fin": 32.4750,
      "lon_fin": -116.9000
    },
    {
      "nombre": "Ruta 20 Centro - El Niño",
      "concesionario": "ATT",
      "tipo_servicio": "Normal",
      "zonas_conecta": "Centro, Col. Obrera, El Niño",
      "calles_principales": "Calle 5ta, Blvd. Industrial, Av. Del Niño",
      "lat_inicio": 32.5290,
      "lon_inicio": -117.0240,
      "lat_fin": 32.5150,
      "lon_fin": -116.9450
    },
    {
      "nombre": "Ruta 21 Centro - Terrazas del Valle",
      "concesionario": "ALTISA",
      "tipo_servicio": "Normal",
      "zonas_conecta": "Centro, La Presa, Terrazas del Valle",
      "calles_principales": "Blvd. Cuauhtémoc, Blvd. Terrazas, Av. Del Valle",
      "lat_inicio": 32.5290,
      "lon_inicio": -117.0240,
      "lat_fin": 32.4600,
      "lon_fin": -116.8700
    },
    {
      "nombre": "Ruta 22 Centro - Cañón del Padre",
      "concesionario": "ATT",
      "tipo_servicio": "Normal",
      "zonas_conecta": "Centro, Col. Libertad Parte Alta, Cañón del Padre",
      "calles_principales": "Av. Constitución, Blvd. Benito Juárez, Cañón del Padre",
      "lat_inicio": 32.5290,
      "lon_inicio": -117.0240,
      "lat_fin": 32.5400,
      "lon_fin": -117.0500
    },
    {
      "nombre": "Ruta 23 Tomás Aquino - Centro",
      "concesionario": "ATT",
      "tipo_servicio": "Normal",
      "zonas_conecta": "Tomás Aquino, Zona Río, Centro",
      "calles_principales": "Blvd. Tomás Aquino, Paseo de los Héroes, Av. Revolución",
      "lat_inicio": 32.5150,
      "lon_inicio": -117.0600,
      "lat_fin": 32.5290,
      "lon_fin": -117.0240
    },
    {
      "nombre": "Ruta 24 Centro - El Florido Sur",
      "concesionario": "ALTISA",
      "tipo_servicio": "Normal",
      "zonas_conecta": "Centro, Zona Río, El Florido Sur",
      "calles_principales": "Blvd. Agua Caliente, Blvd. 2000, Av. Florido Sur",
      "lat_inicio": 32.5290,
      "lon_inicio": -117.0240,
      "lat_fin": 32.4500,
      "lon_fin": -116.8650
    },
    {
      "nombre": "Ruta 25 Centro - Nueva Tijuana",
      "concesionario": "ATT",
      "tipo_servicio": "Normal",
      "zonas_conecta": "Centro, Zona Río, Nueva Tijuana",
      "calles_principales": "Paseo de los Héroes, Blvd. Fundadores, Av. Nueva Tijuana",
      "lat_inicio": 32.5290,
      "lon_inicio": -117.0240,
      "lat_fin": 32.5100,
      "lon_fin": -117.0000
    },
    {
      "nombre": "Ruta 26 Centro - Lomas del Valle",
      "concesionario": "ATT",
      "tipo_servicio": "Normal",
      "zonas_conecta": "Centro, Col. Federal, Lomas del Valle",
      "calles_principales": "Calle 2da, Blvd. Federal, Av. Lomas del Valle",
      "lat_inicio": 32.5290,
      "lon_inicio": -117.0240,
      "lat_fin": 32.4900,
      "lon_fin": -116.9800
    },
    {
      "nombre": "Ruta 27 Centro - Pedregal de Santa Julia",
      "concesionario": "ALTISA",
      "tipo_servicio": "Normal",
      "zonas_conecta": "Centro, La Mesa, Pedregal de Santa Julia",
      "calles_principales": "Blvd. Díaz Ordaz, Blvd. Lázaro Cárdenas, Av. Santa Julia",
      "lat_inicio": 32.5290,
      "lon_inicio": -117.0240,
      "lat_fin": 32.4850,
      "lon_fin": -116.9350
    },
    {
      "nombre": "Ruta 28 Centro - Natura",
      "concesionario": "ATT",
      "tipo_servicio": "Normal",
      "zonas_conecta": "Centro, La Mesa, Fraccionamiento Natura",
      "calles_principales": "Blvd. Díaz Ordaz, Blvd. 2000, Av. Natura",
      "lat_inicio": 32.5290,
      "lon_inicio": -117.0240,
      "lat_fin": 32.4700,
      "lon_fin": -116.9000
    },
    {
      "nombre": "Ruta 29 Centro - Valle de las Palmas",
      "concesionario": "CALFIA",
      "tipo_servicio": "Normal",
      "zonas_conecta": "Centro, La Presa, Valle de las Palmas",
      "calles_principales": "Blvd. Cuauhtémoc, Carr. Libre Tijuana-Tecate, Av. Valle de las Palmas",
      "lat_inicio": 32.5290,
      "lon_inicio": -117.0240,
      "lat_fin": 32.4200,
      "lon_fin": -116.8200
    },
    {
      "nombre": "Ruta 30 Centro - Hacienda Las Delicias",
      "concesionario": "ALTISA",
      "tipo_servicio": "Normal",
      "zonas_conecta": "Centro, Villa Fontana, Hacienda Las Delicias",
      "calles_principales": "Blvd. Agua Caliente, Blvd. Manuel J. Clouthier, Av. Las Delicias",
      "lat_inicio": 32.5290,
      "lon_inicio": -117.0240,
      "lat_fin": 32.4550,
      "lon_fin": -116.8600
    },
    {
      "nombre": "Ruta 31 Centro - Garita de Otay",
      "concesionario": "ATT",
      "tipo_servicio": "Express",
      "zonas_conecta": "Centro, Zona Este, Garita de Otay",
      "calles_principales": "Calle 2da, Blvd. Industrial, Garita Internacional Otay",
      "lat_inicio": 32.5290,
      "lon_inicio": -117.0240,
      "lat_fin": 32.5650,
      "lon_fin": -116.9400
    },
    {
      "nombre": "Ruta 32 Centro - Colinas de California",
      "concesionario": "ATT",
      "tipo_servicio": "Normal",
      "zonas_conecta": "Centro, Hipódromo, Colinas de California",
      "calles_principales": "Blvd. Agua Caliente, Blvd. De las Américas, Av. Colinas",
      "lat_inicio": 32.5290,
      "lon_inicio": -117.0240,
      "lat_fin": 32.4900,
      "lon_fin": -117.0200
    },
    {
      "nombre": "Ruta 33 Centro - Chapultepec",
      "concesionario": "ATT",
      "tipo_servicio": "Normal",
      "zonas_conecta": "Centro, Zona Río, Chapultepec",
      "calles_principales": "Av. Revolución, Blvd. Sánchez Taboada, Av. Chapultepec",
      "lat_inicio": 32.5290,
      "lon_inicio": -117.0240,
      "lat_fin": 32.5050,
      "lon_fin": -117.0350
    },
    {
      "nombre": "Ruta 34 Centro - Pedregal",
      "concesionario": "ATT",
      "tipo_servicio": "Normal",
      "zonas_conecta": "Centro, Zona Este, Pedregal",
      "calles_principales": "Calle 3ra, Blvd. Industrial, Av. Pedregal",
      "lat_inicio": 32.5290,
      "lon_inicio": -117.0240,
      "lat_fin": 32.5000,
      "lon_fin": -116.9500
    },
    {
      "nombre": "Ruta 35 Centro - Pípila",
      "concesionario": "ATT",
      "tipo_servicio": "Normal",
      "zonas_conecta": "Centro, Col. Libertad, Pípila",
      "calles_principales": "Av. Constitución, Calle Pípila, Av. Insurgentes",
      "lat_inicio": 32.5290,
      "lon_inicio": -117.0240,
      "lat_fin": 32.5100,
      "lon_fin": -117.0400
    },
    {
      "nombre": "Ruta Alimentadora A1 SITT Insurgentes",
      "concesionario": "ATT",
      "tipo_servicio": "Alimentador",
      "zonas_conecta": "Estación SITT Insurgentes, Col. Soler, Lomas Taurinas",
      "calles_principales": "Blvd. Insurgentes, Av. Soler, Calle Lomas Taurinas",
      "lat_inicio": 32.4995,
      "lon_inicio": -117.0380,
      "lat_fin": 32.4900,
      "lon_fin": -117.0500
    },
    {
      "nombre": "Ruta Alimentadora A2 SITT Centro",
      "concesionario": "ATT",
      "tipo_servicio": "Alimentador",
      "zonas_conecta": "Estación SITT Centro, Zona Norte, Col. Federal",
      "calles_principales": "Av. Revolución, Calle 1ra, Blvd. Federal",
      "lat_inicio": 32.5300,
      "lon_inicio": -117.0250,
      "lat_fin": 32.5350,
      "lon_fin": -117.0150
    },
    {
      "nombre": "Ruta Alimentadora A3 SITT La Mesa",
      "concesionario": "ALTISA",
      "tipo_servicio": "Alimentador",
      "zonas_conecta": "Estación SITT La Mesa, Col. Nido de las Águilas, Lomas de la Presa",
      "calles_principales": "Blvd. La Mesa, Av. Las Águilas, Calle Presa",
      "lat_inicio": 32.5100,
      "lon_inicio": -116.9600,
      "lat_fin": 32.5000,
      "lon_fin": -116.9500
    },
    {
      "nombre": "Ruta Alimentadora A4 SITT 5 y 10",
      "concesionario": "ATT",
      "tipo_servicio": "Alimentador",
      "zonas_conecta": "Estación SITT 5 y 10, Col. México, Col. Obrera",
      "calles_principales": "Blvd. Cuauhtémoc, Av. México, Calle Obrera",
      "lat_inicio": 32.5200,
      "lon_inicio": -117.0100,
      "lat_fin": 32.5150,
      "lon_fin": -117.0000
    },
    {
      "nombre": "Ruta Alimentadora A5 SITT Otay",
      "concesionario": "ATT",
      "tipo_servicio": "Alimentador",
      "zonas_conecta": "Estación SITT Otay, Parque Industrial Otay, Garita de Otay",
      "calles_principales": "Blvd. Industrial, Blvd. Otay, Garita de Otay",
      "lat_inicio": 32.5500,
      "lon_inicio": -116.9500,
      "lat_fin": 32.5650,
      "lon_fin": -116.9400
    },
    {
      "nombre": "SITT Troncal Sur",
      "concesionario": "ATT",
      "tipo_servicio": "Express",
      "zonas_conecta": "Centro, Zona Río, 5 y 10, La Mesa, El Florido",
      "calles_principales": "Blvd. Insurgentes, Blvd. Díaz Ordaz, Blvd. 2000",
      "lat_inicio": 32.5300,
      "lon_inicio": -117.0250,
      "lat_fin": 32.4650,
      "lon_fin": -116.8800
    },
    {
      "nombre": "SITT Troncal Norte",
      "concesionario": "ATT",
      "tipo_servicio": "Express",
      "zonas_conecta": "Centro, Otay, Garita de Otay",
      "calles_principales": "Calle 2da, Blvd. Industrial Mesa de Otay, Garita Otay",
      "lat_inicio": 32.5300,
      "lon_inicio": -117.0250,
      "lat_fin": 32.5650,
      "lon_fin": -116.9400
    },
    {
      "nombre": "Ruta 36 Centro - Cumbres",
      "concesionario": "ALTISA",
      "tipo_servicio": "Normal",
      "zonas_conecta": "Centro, Zona Río, Cumbres",
      "calles_principales": "Blvd. Agua Caliente, Blvd. De las Américas, Av. Cumbres",
      "lat_inicio": 32.5290,
      "lon_inicio": -117.0240,
      "lat_fin": 32.4850,
      "lon_fin": -117.0300
    },
    {
      "nombre": "Ruta 37 Centro - El Pípila Sur",
      "concesionario": "ATT",
      "tipo_servicio": "Normal",
      "zonas_conecta": "Centro, Col. Pípila, Pípila Sur",
      "calles_principales": "Av. Constitución, Blvd. Insurgentes Sur, Av. Pípila",
      "lat_inicio": 32.5290,
      "lon_inicio": -117.0240,
      "lat_fin": 32.5000,
      "lon_fin": -117.0450
    },
    {
      "nombre": "Ruta 38 Centro - Paseo del Virrey",
      "concesionario": "CALFIA",
      "tipo_servicio": "Normal",
      "zonas_conecta": "Centro, La Mesa, Paseo del Virrey",
      "calles_principales": "Blvd. Díaz Ordaz, Blvd. 2000, Av. Paseo del Virrey",
      "lat_inicio": 32.5290,
      "lon_inicio": -117.0240,
      "lat_fin": 32.4700,
      "lon_fin": -116.8800
    },
    {
      "nombre": "Ruta 39 Centro - Lomas de Agua Caliente",
      "concesionario": "ATT",
      "tipo_servicio": "Normal",
      "zonas_conecta": "Centro, Hipódromo, Lomas de Agua Caliente",
      "calles_principales": "Blvd. Agua Caliente, Av. Hipódromo, Av. Lomas",
      "lat_inicio": 32.5290,
      "lon_inicio": -117.0240,
      "lat_fin": 32.5050,
      "lon_fin": -117.0150
    },
    {
      "nombre": "Ruta 40 Centro - El Murúa",
      "concesionario": "ALTISA",
      "tipo_servicio": "Normal",
      "zonas_conecta": "Centro, Zona Río, El Murúa",
      "calles_principales": "Blvd. Sánchez Taboada, Blvd. 2000, Av. El Murúa",
      "lat_inicio": 32.5290,
      "lon_inicio": -117.0240,
      "lat_fin": 32.4600,
      "lon_fin": -116.8750
    },
    {
      "nombre": "Ruta 41 Centro - Los Pinos",
      "concesionario": "ATT",
      "tipo_servicio": "Normal",
      "zonas_conecta": "Centro, Col. Cacho, Los Pinos",
      "calles_principales": "Blvd. Sánchez Taboada, Blvd. Los Pinos, Av. Tecnológico",
      "lat_inicio": 32.5290,
      "lon_inicio": -117.0240,
      "lat_fin": 32.4800,
      "lon_fin": -116.9600
    },
    {
      "nombre": "Ruta 42 Playas - Otay",
      "concesionario": "ATT",
      "tipo_servicio": "Express",
      "zonas_conecta": "Playas de Tijuana, Centro, Zona Este, Otay",
      "calles_principales": "Paseo Playas, Paseo de los Héroes, Blvd. Industrial, Garita Otay",
      "lat_inicio": 32.5310,
      "lon_inicio": -117.1230,
      "lat_fin": 32.5650,
      "lon_fin": -116.9400
    },
    {
      "nombre": "Ruta 43 Centro - Praderas de la Mesa",
      "concesionario": "ALTISA",
      "tipo_servicio": "Normal",
      "zonas_conecta": "Centro, La Mesa, Praderas de la Mesa",
      "calles_principales": "Blvd. Díaz Ordaz, Blvd. La Mesa, Av. Praderas",
      "lat_inicio": 32.5290,
      "lon_inicio": -117.0240,
      "lat_fin": 32.5000,
      "lon_fin": -116.9400
    },
    {
      "nombre": "Ruta 44 Centro - Valle del Rubí",
      "concesionario": "CALFIA",
      "tipo_servicio": "Normal",
      "zonas_conecta": "Centro, La Presa, Valle del Rubí",
      "calles_principales": "Blvd. Cuauhtémoc, Blvd. Valle del Rubí, Av. Del Rubí",
      "lat_inicio": 32.5290,
      "lon_inicio": -117.0240,
      "lat_fin": 32.4500,
      "lon_fin": -116.8500
    },
    {
      "nombre": "Ruta 45 Centro - Santa Anita",
      "concesionario": "ATT",
      "tipo_servicio": "Normal",
      "zonas_conecta": "Centro, Zona Este, Santa Anita",
      "calles_principales": "Calle 2da, Blvd. Industrial, Av. Santa Anita",
      "lat_inicio": 32.5290,
      "lon_inicio": -117.0240,
      "lat_fin": 32.5300,
      "lon_fin": -116.9300
    },
    {
      "nombre": "Ruta Alimentadora A6 SITT Mariano Matamoros",
      "concesionario": "ALTISA",
      "tipo_servicio": "Alimentador",
      "zonas_conecta": "Estación SITT Mariano Matamoros, Urbi Villa, Hacienda Las Delicias",
      "calles_principales": "Av. Lázaro Cárdenas, Blvd. Urbi Villa, Av. Las Delicias",
      "lat_inicio": 32.4700,
      "lon_inicio": -116.9200,
      "lat_fin": 32.4550,
      "lon_fin": -116.8600
    },
    {
      "nombre": "Ruta Alimentadora A7 SITT Villa Fontana",
      "concesionario": "ALTISA",
      "tipo_servicio": "Alimentador",
      "zonas_conecta": "Estación SITT Villa Fontana, Natura, El Laurel",
      "calles_principales": "Blvd. Manuel J. Clouthier, Av. Natura, Calle El Laurel",
      "lat_inicio": 32.4650,
      "lon_inicio": -116.8900,
      "lat_fin": 32.4600,
      "lon_fin": -116.8800
    },
    {
      "nombre": "Ruta Express E1 Centro - El Florido Directo",
      "concesionario": "ATT",
      "tipo_servicio": "Express",
      "zonas_conecta": "Centro, El Florido (servicio directo sin paradas intermedias)",
      "calles_principales": "Blvd. Insurgentes, Blvd. 2000, Blvd. El Florido",
      "lat_inicio": 32.5300,
      "lon_inicio": -117.0250,
      "lat_fin": 32.4650,
      "lon_fin": -116.8800
    },
    {
      "nombre": "Ruta Express E2 Centro - Garita San Ysidro",
      "concesionario": "ATT",
      "tipo_servicio": "Express",
      "zonas_conecta": "Centro, Zona Norte, Garita San Ysidro (PedWest)",
      "calles_principales": "Calle Internacional, Av. Revolución Norte, Garita PedWest",
      "lat_inicio": 32.5300,
      "lon_inicio": -117.0250,
      "lat_fin": 32.5420,
      "lon_fin": -117.0310
    }
  ],
  "puntos_interes": [
    {"nombre": "UABC Campus Tijuana", "tipo": "Universidad", "latitud": 32.5255, "longitud": -117.0130, "colonia": "Otay Universidad", "direccion": "Blvd. Universitario 1000"},
    {"nombre": "UABC Facultad de Medicina", "tipo": "Universidad", "latitud": 32.5262, "longitud": -117.0095, "colonia": "Otay Universidad", "direccion": "Av. Universidad s/n"},
    {"nombre": "UABC Facultad de Ingeniería", "tipo": "Universidad", "latitud": 32.5270, "longitud": -117.0115, "colonia": "Otay Universidad", "direccion": "Blvd. Universitario 1100"},
    {"nombre": "UABC Facultad de Economía", "tipo": "Universidad", "latitud": 32.5248, "longitud": -117.0140, "colonia": "Otay Universidad", "direccion": "Calzada Universidad 14418"},
    {"nombre": "UABC Facultad de Arquitectura", "tipo": "Universidad", "latitud": 32.5260, "longitud": -117.0125, "colonia": "Otay Universidad", "direccion": "Blvd. Universitario s/n"},
    {"nombre": "UABC Facultad de Derecho", "tipo": "Universidad", "latitud": 32.5253, "longitud": -117.0132, "colonia": "Otay Universidad", "direccion": "Blvd. Universitario s/n"},
    {"nombre": "UABC Facultad de Turismo", "tipo": "Universidad", "latitud": 32.5245, "longitud": -117.0145, "colonia": "Otay Universidad", "direccion": "Calzada Universidad 14418"},
    {"nombre": "UABC Facultad de Humanidades", "tipo": "Universidad", "latitud": 32.5258, "longitud": -117.0120, "colonia": "Otay Universidad", "direccion": "Calzada Universidad 14418"},
    {"nombre": "CETYS Universidad Campus Tijuana", "tipo": "Universidad", "latitud": 32.4995, "longitud": -117.0050, "colonia": "Cerro de las Abejas", "direccion": "Calzada CETYS s/n"},
    {"nombre": "Universidad Iberoamericana Tijuana", "tipo": "Universidad", "latitud": 32.5050, "longitud": -117.0200, "colonia": "Playas de Tijuana", "direccion": "Blvd. Tomás Aquino 10799"},
    {"nombre": "Universidad Xochicalco Campus Tijuana", "tipo": "Universidad", "latitud": 32.5150, "longitud": -117.0030, "colonia": "La Mesa", "direccion": "Blvd. Lázaro Cárdenas 8360"},
    {"nombre": "Universidad del Valle de México Tijuana", "tipo": "Universidad", "latitud": 32.5180, "longitud": -117.0100, "colonia": "Zona Río", "direccion": "Blvd. Sánchez Taboada 9380"},
    {"nombre": "Tecnológico Nacional de México Campus Tijuana", "tipo": "Universidad", "latitud": 32.4900, "longitud": -116.9610, "colonia": "Tomás Aquino", "direccion": "Calzada del Tecnológico s/n"},
    {"nombre": "UNIVER Tijuana", "tipo": "Universidad", "latitud": 32.5120, "longitud": -117.0180, "colonia": "Zona Río", "direccion": "Blvd. Sánchez Taboada 10488"},
    {"nombre": "Universidad Autónoma de Durango Campus Tijuana", "tipo": "Universidad", "latitud": 32.5200, "longitud": -117.0050, "colonia": "Zona Río", "direccion": "Blvd. Sánchez Taboada 8950"},
    {"nombre": "Centro de Enseñanza Técnica y Superior (CETYS Posgrado)", "tipo": "Universidad", "latitud": 32.5000, "longitud": -117.0060, "colonia": "Cerro de las Abejas", "direccion": "Calzada CETYS s/n"},
    {"nombre": "Plaza Río Tijuana", "tipo": "Centro Comercial", "latitud": 32.5230, "longitud": -117.0260, "colonia": "Zona Río", "direccion": "Paseo de los Héroes 96"},
    {"nombre": "Macroplaza Insurgentes", "tipo": "Centro Comercial", "latitud": 32.4990, "longitud": -117.0420, "colonia": "Col. Insurgentes", "direccion": "Blvd. Insurgentes 18500"},
    {"nombre": "Plaza Mundo Divertido", "tipo": "Centro Comercial", "latitud": 32.5220, "longitud": -117.0280, "colonia": "Zona Río", "direccion": "Paseo de los Héroes 9365"},
    {"nombre": "Plaza Galerías Hipódromo", "tipo": "Centro Comercial", "latitud": 32.5100, "longitud": -117.0180, "colonia": "Hipódromo", "direccion": "Blvd. Agua Caliente 4558"},
    {"nombre": "Plaza Monarca", "tipo": "Centro Comercial", "latitud": 32.5050, "longitud": -117.0300, "colonia": "Col. Cacho", "direccion": "Av. Paseo del Centenario 16970"},
    {"nombre": "Plaza Otay", "tipo": "Centro Comercial", "latitud": 32.5450, "longitud": -116.9550, "colonia": "Otay", "direccion": "Blvd. Industrial 19810"},
    {"nombre": "La Cúspide Mall", "tipo": "Centro Comercial", "latitud": 32.5170, "longitud": -117.0060, "colonia": "La Mesa", "direccion": "Blvd. Díaz Ordaz 12649"},
    {"nombre": "Plaza Financiera", "tipo": "Centro Comercial", "latitud": 32.5215, "longitud": -117.0240, "colonia": "Zona Río", "direccion": "Blvd. Agua Caliente 4558"},
    {"nombre": "Costco Tijuana", "tipo": "Centro Comercial", "latitud": 32.5120, "longitud": -117.0200, "colonia": "Hipódromo", "direccion": "Blvd. Agua Caliente 11600"},
    {"nombre": "Walmart Macroplaza", "tipo": "Centro Comercial", "latitud": 32.4985, "longitud": -117.0430, "colonia": "Col. Insurgentes", "direccion": "Blvd. Insurgentes 18502"},
    {"nombre": "Soriana La Mesa", "tipo": "Centro Comercial", "latitud": 32.5080, "longitud": -116.9700, "colonia": "La Mesa", "direccion": "Blvd. La Mesa 8900"},
    {"nombre": "Calimax Zona Río", "tipo": "Centro Comercial", "latitud": 32.5210, "longitud": -117.0230, "colonia": "Zona Río", "direccion": "Paseo de los Héroes 10120"},
    {"nombre": "Hospital General de Tijuana", "tipo": "Hospital", "latitud": 32.5185, "longitud": -117.0060, "colonia": "Zona Río", "direccion": "Av. Centenario 10851"},
    {"nombre": "Hospital del IMSS No. 20", "tipo": "Hospital", "latitud": 32.5200, "longitud": -117.0100, "colonia": "Zona Río", "direccion": "Blvd. Díaz Ordaz s/n"},
    {"nombre": "Hospital ISSSTE Tijuana", "tipo": "Hospital", "latitud": 32.5140, "longitud": -117.0050, "colonia": "La Mesa", "direccion": "Blvd. Díaz Ordaz 12800"},
    {"nombre": "Hospital Ángeles Tijuana", "tipo": "Hospital", "latitud": 32.5150, "longitud": -117.0120, "colonia": "Hipódromo", "direccion": "Av. Paseo de los Héroes 10999"},
    {"nombre": "Hospital de Salud Mental de Tijuana", "tipo": "Hospital", "latitud": 32.5160, "longitud": -117.0080, "colonia": "La Mesa", "direccion": "Av. Instituto Politécnico Nacional s/n"},
    {"nombre": "Hospital del Prado", "tipo": "Hospital", "latitud": 32.5130, "longitud": -117.0150, "colonia": "Zona Río", "direccion": "Blvd. Sánchez Taboada 9888"},
    {"nombre": "Cruz Roja Mexicana Tijuana", "tipo": "Hospital", "latitud": 32.5230, "longitud": -117.0200, "colonia": "Zona Río", "direccion": "Calle Gómez Farías 1636"},
    {"nombre": "Hospital IMSS No. 1", "tipo": "Hospital", "latitud": 32.5280, "longitud": -117.0190, "colonia": "Centro", "direccion": "Calle 3ra s/n"},
    {"nombre": "Hospital Infantil de las Californias", "tipo": "Hospital", "latitud": 32.5060, "longitud": -117.0250, "colonia": "Col. Cacho", "direccion": "Blvd. Sánchez Taboada 10400"},
    {"nombre": "Clínica del ISSSTECALI Tijuana", "tipo": "Hospital", "latitud": 32.5170, "longitud": -117.0130, "colonia": "Zona Río", "direccion": "Av. Paseo de los Héroes s/n"},
    {"nombre": "Unidad de Medicina Familiar IMSS No. 27", "tipo": "Hospital", "latitud": 32.5300, "longitud": -117.0270, "colonia": "Centro", "direccion": "Calle 5ta y Av. Revolución"},
    {"nombre": "Estación SITT Centro", "tipo": "Estación", "latitud": 32.5300, "longitud": -117.0250, "colonia": "Centro", "direccion": "Calle 2da y Av. Constitución"},
    {"nombre": "Estación SITT 5 y 10", "tipo": "Estación", "latitud": 32.5200, "longitud": -117.0100, "colonia": "Col. México", "direccion": "Blvd. Cuauhtémoc y Calle 5 y 10"},
    {"nombre": "Estación SITT Insurgentes", "tipo": "Estación", "latitud": 32.4995, "longitud": -117.0380, "colonia": "Col. Insurgentes", "direccion": "Blvd. Insurgentes s/n"},
    {"nombre": "Estación SITT La Mesa", "tipo": "Estación", "latitud": 32.5100, "longitud": -116.9600, "colonia": "La Mesa", "direccion": "Blvd. Díaz Ordaz y Blvd. La Mesa"},
    {"nombre": "Estación SITT Otay", "tipo": "Estación", "latitud": 32.5500, "longitud": -116.9500, "colonia": "Otay", "direccion": "Blvd. Industrial Mesa de Otay"},
    {"nombre": "Estación SITT Mariano Matamoros", "tipo": "Estación", "latitud": 32.4700, "longitud": -116.9200, "colonia": "Mariano Matamoros", "direccion": "Av. Lázaro Cárdenas s/n"},
    {"nombre": "Estación SITT Villa Fontana", "tipo": "Estación", "latitud": 32.4650, "longitud": -116.8900, "colonia": "Villa Fontana", "direccion": "Blvd. Manuel J. Clouthier"},
    {"nombre": "Estación SITT El Florido", "tipo": "Estación", "latitud": 32.4650, "longitud": -116.8800, "colonia": "El Florido", "direccion": "Blvd. El Florido"},
    {"nombre": "CECUT - Centro Cultural Tijuana", "tipo": "Otro", "latitud": 32.5228, "longitud": -117.0330, "colonia": "Zona Río", "direccion": "Paseo de los Héroes 9350"},
    {"nombre": "Palacio Municipal de Tijuana", "tipo": "Otro", "latitud": 32.5295, "longitud": -117.0220, "colonia": "Centro", "direccion": "Calle Independencia 1350"},
    {"nombre": "Central de Autobuses Tijuana", "tipo": "Estación", "latitud": 32.5180, "longitud": -117.0050, "colonia": "La Mesa", "direccion": "Blvd. Lázaro Cárdenas s/n"},
    {"nombre": "Aeropuerto Internacional de Tijuana", "tipo": "Estación", "latitud": 32.5413, "longitud": -116.9700, "colonia": "Mesa de Otay", "direccion": "Carretera Aeropuerto s/n"},
    {"nombre": "Garita San Ysidro (PedWest)", "tipo": "Estación", "latitud": 32.5420, "longitud": -117.0310, "colonia": "Zona Norte", "direccion": "Garita Internacional San Ysidro"},
    {"nombre": "Garita de Otay", "tipo": "Estación", "latitud": 32.5650, "longitud": -116.9400, "colonia": "Mesa de Otay", "direccion": "Garita Internacional Otay"},
    {"nombre": "Mercado Hidalgo", "tipo": "Otro", "latitud": 32.5260, "longitud": -117.0290, "colonia": "Centro", "direccion": "Calle Benito Juárez y Av. Independencia"},
    {"nombre": "Parque Morelos", "tipo": "Otro", "latitud": 32.5060, "longitud": -117.0400, "colonia": "Col. Cacho", "direccion": "Blvd. Insurgentes s/n"},
    {"nombre": "Estadio Caliente", "tipo": "Otro", "latitud": 32.5110, "longitud": -117.0200, "colonia": "Hipódromo", "direccion": "Blvd. Agua Caliente 12027"},
    {"nombre": "Plaza de Toros Monumental", "tipo": "Otro", "latitud": 32.5325, "longitud": -117.1230, "colonia": "Playas de Tijuana", "direccion": "Av. del Pacífico s/n"},
    {"nombre": "Parque de la Amistad", "tipo": "Otro", "latitud": 32.5350, "longitud": -117.1250, "colonia": "Playas de Tijuana", "direccion": "Límite fronterizo, Playas de Tijuana"},
    {"nombre": "Colegio de la Frontera Norte (COLEF)", "tipo": "Universidad", "latitud": 32.5160, "longitud": -117.0080, "colonia": "Zona Río", "direccion": "Blvd. Abelardo L. Rodríguez 2925"},
    {"nombre": "CONALEP Tijuana I", "tipo": "Universidad", "latitud": 32.5050, "longitud": -116.9650, "colonia": "La Mesa", "direccion": "Blvd. La Mesa 18900"},
    {"nombre": "CONALEP Tijuana II", "tipo": "Universidad", "latitud": 32.4750, "longitud": -116.9100, "colonia": "Mariano Matamoros", "direccion": "Av. Lázaro Cárdenas s/n"},
    {"nombre": "COBACH Plantel Otay", "tipo": "Universidad", "latitud": 32.5400, "longitud": -116.9500, "colonia": "Otay", "direccion": "Blvd. Industrial 18500"},
    {"nombre": "COBACH Plantel La Mesa", "tipo": "Universidad", "latitud": 32.5080, "longitud": -116.9620, "colonia": "La Mesa", "direccion": "Blvd. Lázaro Cárdenas 7480"},
    {"nombre": "COBACH Plantel El Florido", "tipo": "Universidad", "latitud": 32.4660, "longitud": -116.8810, "colonia": "El Florido", "direccion": "Blvd. El Florido s/n"},
    {"nombre": "Preparatoria Federal Lázaro Cárdenas", "tipo": "Universidad", "latitud": 32.5250, "longitud": -117.0170, "colonia": "Zona Río", "direccion": "Blvd. Díaz Ordaz 8950"},
    {"nombre": "Preparatoria UABC", "tipo": "Universidad", "latitud": 32.5240, "longitud": -117.0150, "colonia": "Zona Río", "direccion": "Calzada Universidad 14418"},
    {"nombre": "Centro Comunitario de Salud Playas", "tipo": "Hospital", "latitud": 32.5300, "longitud": -117.1100, "colonia": "Playas de Tijuana", "direccion": "Av. del Pacífico 1500"},
    {"nombre": "Walmart Otay", "tipo": "Centro Comercial", "latitud": 32.5460, "longitud": -116.9530, "colonia": "Otay", "direccion": "Blvd. Industrial 19900"},
    {"nombre": "Soriana El Florido", "tipo": "Centro Comercial", "latitud": 32.4670, "longitud": -116.8820, "colonia": "El Florido", "direccion": "Blvd. El Florido 17000"},
    {"nombre": "Plaza Sendero Tijuana", "tipo": "Centro Comercial", "latitud": 32.4750, "longitud": -116.9050, "colonia": "Mariano Matamoros", "direccion": "Av. Lázaro Cárdenas 8000"},
    {"nombre": "Liverpool Plaza Río", "tipo": "Centro Comercial", "latitud": 32.5225, "longitud": -117.0255, "colonia": "Zona Río", "direccion": "Paseo de los Héroes 96-A"},
    {"nombre": "Home Depot Tijuana", "tipo": "Centro Comercial", "latitud": 32.5130, "longitud": -117.0060, "colonia": "La Mesa", "direccion": "Blvd. Díaz Ordaz 12700"},
    {"nombre": "Sam's Club Tijuana", "tipo": "Centro Comercial", "latitud": 32.5110, "longitud": -117.0210, "colonia": "Hipódromo", "direccion": "Blvd. Agua Caliente 11500"},
    {"nombre": "Centro de Gobierno Estatal Tijuana", "tipo": "Otro", "latitud": 32.5190, "longitud": -117.0180, "colonia": "Zona Río", "direccion": "Blvd. Díaz Ordaz s/n"},
    {"nombre": "Iglesia Nuestra Señora de Guadalupe", "tipo": "Otro", "latitud": 32.5290, "longitud": -117.0260, "colonia": "Centro", "direccion": "Calle 1ra y Av. Constitución"},
    {"nombre": "Biblioteca Central de Tijuana", "tipo": "Otro", "latitud": 32.5270, "longitud": -117.0240, "colonia": "Centro", "direccion": "Av. Revolución 1400"},
    {"nombre": "DIF Municipal Tijuana", "tipo": "Otro", "latitud": 32.5280, "longitud": -117.0230, "colonia": "Centro", "direccion": "Calle 3ra 1815"},
    {"nombre": "Registro Civil Tijuana", "tipo": "Otro", "latitud": 32.5285, "longitud": -117.0215, "colonia": "Centro", "direccion": "Blvd. Cuauhtémoc Sur 1"},
    {"nombre": "CESPT (Agua y Drenaje)", "tipo": "Otro", "latitud": 32.5190, "longitud": -117.0160, "colonia": "Zona Río", "direccion": "Blvd. Federalismo 1950"},
    {"nombre": "Catedral de Nuestra Señora de Guadalupe", "tipo": "Otro", "latitud": 32.5310, "longitud": -117.0230, "colonia": "Centro", "direccion": "Calle 2da 8090"},
    {"nombre": "Parque Teniente Guerrero", "tipo": "Otro", "latitud": 32.5270, "longitud": -117.0280, "colonia": "Centro", "direccion": "Calle Benito Juárez y Av. Revolución"},
    {"nombre": "Casa de la Cultura Tijuana", "tipo": "Otro", "latitud": 32.5250, "longitud": -117.0260, "colonia": "Centro", "direccion": "Calle 5ta y Av. Revolución"},
    {"nombre": "Unidad Deportiva CREA", "tipo": "Otro", "latitud": 32.5000, "longitud": -117.0350, "colonia": "Col. Insurgentes", "direccion": "Blvd. Insurgentes 10000"},
    {"nombre": "Bomberos Tijuana Estación Central", "tipo": "Otro", "latitud": 32.5265, "longitud": -117.0200, "colonia": "Centro", "direccion": "Calle 3ra 1200"},
    {"nombre": "Coppel Centro Tijuana", "tipo": "Centro Comercial", "latitud": 32.5275, "longitud": -117.0270, "colonia": "Centro", "direccion": "Av. Revolución 200"},
    {"nombre": "Elektra Centro Tijuana", "tipo": "Centro Comercial", "latitud": 32.5278, "longitud": -117.0265, "colonia": "Centro", "direccion": "Av. Revolución 350"},
    {"nombre": "OXXO Centro (Revolución)", "tipo": "Centro Comercial", "latitud": 32.5280, "longitud": -117.0260, "colonia": "Centro", "direccion": "Av. Revolución 500"},
    {"nombre": "Farmacia Guadalajara Zona Río", "tipo": "Centro Comercial", "latitud": 32.5210, "longitud": -117.0250, "colonia": "Zona Río", "direccion": "Paseo de los Héroes 9550"},
    {"nombre": "Colegio México", "tipo": "Universidad", "latitud": 32.5170, "longitud": -117.0100, "colonia": "Hipódromo", "direccion": "Av. Hipódromo 1050"}
  ]
}
